City_ID,City,Country,Max Temp,Current Description,Lat,Lng,Hotel Name
1,bani,DO,77.86,scattered clouds,18.2833,-70.3333,Hospedaje Henriquez
2,dingle,PH,90.12,scattered clouds,10.9995,122.6711,SEGAYA PROPERTY
10,hermanus,ZA,60.8,overcast clouds,-34.4187,19.2345,Misty Waves Boutique Hotel
13,kulhudhuffushi,MV,82.56,overcast clouds,6.6221,73.07,Hondaafushi Island Resort
14,kalemie,CD,67.59,clear sky,-5.9475,29.1947,Mahobilali
17,araouane,ML,91.96,few clouds,18.9048,-3.5265,
19,pisco,PE,61.02,mist,-13.7,-76.2167,Hotel San Isidro Oficial
25,busselton,AU,65.05,scattered clouds,-33.65,115.3333,Observatory Guest House
26,faanui,PF,78.51,scattered clouds,-16.4833,-151.75,Bora-Bora Pearl Beach Resort & Spa
27,manggar,ID,84.52,overcast clouds,-2.8833,108.2667,Guest Hotel
28,isangel,VU,80.71,few clouds,-19.55,169.2667,Tanna Lodge
33,vila franca do campo,PT,70.21,broken clouds,37.7167,-25.4333,Pestana Bahia Praia
34,sao jose da coroa grande,BR,72.7,clear sky,-8.8978,-35.1478,Crôa Mares Hotel
36,snasa,NO,66.69,broken clouds,64.2457,12.3778,Snåsa Hotell AS
37,atuona,PF,77.29,broken clouds,-9.8,-139.0333,Villa Enata
38,saskylakh,RU,78.39,broken clouds,71.9167,114.0833,
39,carutapera,BR,75.63,clear sky,-1.195,-46.02,Lidera
43,jamestown,US,67.64,clear sky,42.097,-79.2353,Hampton Inn & Suites Jamestown
44,yining,CN,93.09,clear sky,29.0361,114.5636,Xiushui Hotel
45,bandarbeyla,SO,80.89,overcast clouds,9.4942,50.8122,JABIR HOTEL
46,morant bay,JM,82.02,scattered clouds,17.8815,-76.4093,Whispering Bamboo Cove Resort
47,blackwater,AU,83.07,clear sky,-23.5833,148.8833,Blackwater Motor Inn
48,sarkand,KZ,77.49,clear sky,45.41,79.9186,Гостиница Сарканд
49,vaini,TO,73.56,few clouds,-21.2,-175.2,Keleti Beach Resort
51,ukiah,US,78.37,clear sky,39.1502,-123.2078,Hampton Inn Ukiah
52,khatanga,RU,72.28,overcast clouds,71.9667,102.5,"Gostinitsa ""Zapolyar'ye"""
56,hays,US,84.96,broken clouds,30.0502,-98.0336,Sinya on Lone Man Creek
59,esperance,AU,62.44,scattered clouds,-33.8667,121.9,Hospitality Esperance
60,yerbogachen,RU,83.8,clear sky,61.2767,108.0108,
61,lompoc,US,66.11,overcast clouds,34.6391,-120.4579,"Holiday Inn Express Lompoc, an IHG Hotel"
63,arraial do cabo,BR,63.95,overcast clouds,-22.9661,-42.0278,Pousada Porto Praia
68,nha trang,VN,96.8,overcast clouds,12.25,109.1833,Sheraton Nha Trang Hotel & Spa
69,zhangye,CN,91.72,clear sky,38.9342,100.4517,Zhangye Lvzhou Holiday Inn
70,bredasdorp,ZA,60.28,broken clouds,-34.5322,20.0403,Bredasdorp Country Manor
72,kahului,US,81.66,scattered clouds,20.8947,-156.47,Maui Seaside Hotel
73,dunmore town,BS,83.34,clear sky,25.5,-76.65,Coral Sands Hotel
76,ponta delgada,PT,70.52,broken clouds,37.7333,-25.6667,Vila Nova Hotel
77,bethel,US,70.48,broken clouds,41.3712,-73.414,Courtyard by Marriott Danbury
79,bartica,GY,75.52,clear sky,6.4,-58.6167,Sloth Island Nature Resort
80,broome,US,61.66,clear sky,42.2506,-75.833,Chenango Valley State Park
81,balykshi,KZ,75.2,clear sky,47.0667,51.8667,Гостиница Golden Rose
83,yellowknife,CA,62.29,broken clouds,62.456,-114.3525,The Explorer Hotel
87,lorengau,PG,85.14,scattered clouds,-2.0226,147.2712,Lorengau Harbourside Hotel
88,boli,CN,91.78,overcast clouds,45.7667,130.5167,The Disabled Recovery Xunlianshi
89,nabire,ID,83.19,scattered clouds,-3.3667,135.4833,Hotel Nusantara Nabire
91,vila velha,BR,69.75,few clouds,-20.3297,-40.2925,Quality Suites Vila Velha
92,saint-leu,RE,68.86,broken clouds,-21.15,55.2833,La Caz Oceane
94,minab,IR,92.7,overcast clouds,27.1467,57.0801,Bam campground
95,qui nhon,VN,91.96,scattered clouds,13.7667,109.2333,Hoang Yen Canary Hotel
96,galich,RU,63.5,overcast clouds,58.3797,42.3475,Galich-Rus'-Otel'
97,albany,US,64.58,scattered clouds,42.6001,-73.9662,
99,victoria,HK,91.45,overcast clouds,22.2855,114.1577,Mini Hotel Central
100,san vicente de canete,PE,63.18,scattered clouds,-13.0751,-76.3835,Hotel Konford
101,hambantota,LK,86.34,few clouds,6.1241,81.1185,Bungalow 63
102,pacific grove,US,69.15,scattered clouds,36.6177,-121.9166,Lovers Point Inn
103,muros,ES,63.09,clear sky,42.7762,-9.0603,Apartment Av. Castelao
104,vao,NC,69.89,broken clouds,-22.6667,167.4833,Hotel Kou-Bugny
105,yumen,CN,91.0,clear sky,40.2833,97.2,
106,asilah,MA,75.16,clear sky,35.465,-6.0348,Hotel Zelis
107,kapaa,US,84.18,broken clouds,22.0752,-159.319,Sheraton Kauai Coconut Beach Resort
109,georgetown,MY,85.98,scattered clouds,5.4112,100.3354,Cititel Penang
111,honiara,SB,83.12,scattered clouds,-9.4333,159.95,Heritage Park Hotel
115,carcassonne,FR,68.68,clear sky,43.25,2.1667,Domaine les Magasins
118,hovd,MN,68.4,clear sky,48.0056,91.6419,Hotel Khovd
119,selkirk,CA,71.67,clear sky,50.1436,-96.8845,Nova House Inc
120,kralendijk,BQ,82.38,clear sky,12.15,-68.2667,Divi Flamingo Beach Resort & Casino
121,ribeira grande,PT,70.27,few clouds,38.5167,-28.7,Quinta da Meia Eira
122,bengkulu,ID,84.6,broken clouds,-3.8004,102.2655,Grage Hotel Bengkulu
124,riyadh,SA,87.94,overcast clouds,24.6877,46.7219,"InterContinental Riyadh, an IHG Hotel"
125,katsuura,JP,87.91,few clouds,35.1333,140.3,Katsuura Hotel Mikazuki
126,corinth,GR,85.62,clear sky,37.9407,22.9573,Ephira Hotel
127,shizunai,JP,75.94,clear sky,42.3339,142.3669,Shizunai Eclipse Hotel
129,pachino,IT,75.24,clear sky,36.7186,15.0907,Pietra Bianca B&B
130,kodiak,US,60.31,overcast clouds,57.79,-152.4072,Best Western Kodiak Inn And Convention Center
131,gunnedah,AU,60.42,clear sky,-30.9833,150.25,Gunnedah Motor Inn
132,khorramshahr,IR,84.16,clear sky,30.4397,48.1664,دفتر نمایندگی شرکت بازاریابان ایرانیان زمینBIZ
134,boquira,BR,67.98,clear sky,-12.8231,-42.7306,Cristal Palace Hotel
135,kropotkin,RU,71.26,clear sky,45.4375,40.5756,Hotel Europe Kropotkin
136,antofagasta,CL,63.21,clear sky,-23.65,-70.4,"Holiday Inn Express Antofagasta, an IHG Hotel"
137,sur,OM,95.77,broken clouds,22.5667,59.5289,Sur Plaza Hotel
138,tabas,IR,88.29,clear sky,33.5959,56.9244,شرکت معماری مهراز شایگان آراد
140,wajir,KE,73.36,broken clouds,1.7471,40.0573,Al-bustan Hotel And Restaurant.
141,praya,CV,75.74,broken clouds,14.9215,-23.5087,LT Aparthotel
142,waldkirchen,DE,60.69,broken clouds,48.7327,13.6008,Hotel Gottinger
143,nikolskoye,RU,67.89,broken clouds,59.7035,30.7861,Tourist House - Sablino
144,yulara,AU,76.84,clear sky,-25.2406,130.9889,Desert Gardens Hotel - Ayers Rock Resort
147,veraval,IN,82.22,overcast clouds,20.9,70.3667,Lords Inn Somnath
148,praia,CV,75.74,broken clouds,14.9215,-23.5087,LT Aparthotel
151,roseburg,US,89.71,clear sky,43.2165,-123.3417,"Holiday Inn Express Roseburg, an IHG Hotel"
152,la vista,US,88.56,clear sky,41.1839,-96.0311,Comfort Inn & Suites Omaha Central
155,makakilo city,US,82.72,broken clouds,21.3469,-158.0858,Marriott's Ko Olina Beach Club
156,alyangula,AU,84.07,broken clouds,-13.8483,136.4192,Groote Eylandt Lodge
157,turka,UA,64.8,clear sky,49.1541,23.0297,Мотель
158,toshkivka,UA,75.22,broken clouds,48.7791,38.579,ХАТА ГЛ.КАБАНА
161,whitehorse,CA,68.02,scattered clouds,60.7161,-135.0538,The Sternwheeler Hotel & Conference Centre
162,asau,RO,66.96,few clouds,46.4333,26.4,Casa Mika Ciobanus
163,ponta do sol,PT,73.0,scattered clouds,32.6667,-17.1,Hotel do Campo
166,spring valley,US,99.79,broken clouds,36.108,-115.245,Westgate Flamingo Bay Resort
167,otane,NZ,60.39,clear sky,-39.8833,176.6333,Ludlow Farmstay
168,port shepstone,ZA,60.31,clear sky,-30.7414,30.455,My Den Beachfront Bed and Breakfast | Self-Catering
169,wewak,PG,84.72,broken clouds,-3.5534,143.6268,In Wewak Boutique Hotel
170,kirakira,SB,83.84,few clouds,-10.4544,161.9205,SanBiz Lodge
172,puerto ayora,EC,71.29,scattered clouds,-0.7393,-90.3518,Finch Bay Galapagos Hotel
173,los llanos de aridane,ES,67.75,few clouds,28.6585,-17.9182,Valle Aridane
174,ketchikan,US,63.07,broken clouds,55.3422,-131.6461,Snows Cove Lodge
176,suez,EG,76.42,clear sky,29.9737,32.5263,Green House
177,jishou,CN,91.15,few clouds,28.3167,109.7167,7 Days Inn
178,cabo san lucas,MX,87.62,clear sky,22.8909,-109.9124,Hotel Tesoro Los Cabos
180,mahajanga,MG,64.42,few clouds,-15.7167,46.3167,Restaurant Greedy Coco Lodge Majunga
182,geraldton,AU,67.12,overcast clouds,-28.7667,114.6,Broadwater Mariner Resort
184,ayorou,NE,80.53,scattered clouds,14.7308,0.9174,Hotel Amenokal
186,baykit,RU,78.93,broken clouds,61.67,96.37,
187,batemans bay,AU,65.1,clear sky,-35.7167,150.1833,Batemans Bay Marina Resort
188,macon,US,80.35,clear sky,39.8667,-88.9668,Haworth Cottage
190,avera,US,81.72,broken clouds,33.194,-82.5271,
192,inuvik,CA,61.66,broken clouds,68.3499,-133.7218,Nova Inn Inuvik
193,mayo,US,79.21,haze,38.8876,-76.5119,Resorts Resource Group International
194,teruel,ES,60.76,clear sky,40.6667,-0.6667,La Parra
195,leh,IN,60.57,overcast clouds,34.1667,77.5833,Hotel Ladakh Greens
196,caravelas,BR,72.28,few clouds,-17.7125,-39.2481,Pousada dos Navegantes
199,saint george,US,97.39,clear sky,37.1041,-113.5841,Best Western Plus Abbey Inn
200,tazmalt,DZ,82.18,clear sky,36.3868,4.3989,Hôtel Numédia
201,port hedland,AU,80.65,clear sky,-20.3167,118.5667,The Esplanade Hotel
204,muncar,ID,84.81,scattered clouds,-8.4333,114.3333,Zaky Homestay
206,abonnema,NG,73.47,overcast clouds,4.7084,6.7931,Corper's Lodge Obonoma
209,labuhan,ID,87.84,few clouds,-6.8844,112.2051,PT PPI Lamongan Tambak C
211,goderich,CA,68.04,broken clouds,43.7501,-81.7165,Harmony Inn
212,yatou,CN,84.15,broken clouds,37.15,122.3833,GreenTree Hotel Rongcheng Bus Station
213,krasnoselkup,RU,67.23,clear sky,65.7,82.4667,Krasnosel'kupnefteprodukt
214,norman wells,CA,64.44,broken clouds,65.282,-126.8329,Heritage Hotel
215,altay,CN,75.69,few clouds,47.8667,88.1167,Jinqiao Hotel
216,ottersberg,DE,62.55,broken clouds,53.1,9.15,Ferienhaus in Schweden
218,katherine,AU,91.72,few clouds,-14.4667,132.2667,Pine Tree Motel
220,hualmay,PE,63.25,broken clouds,-11.0964,-77.6139,Hotel Villa Kitzia Huacho
221,ordynskoye,RU,71.55,scattered clouds,54.3656,81.8994,Lunevka
227,istok,XK,61.72,clear sky,42.7808,20.4875,Hotel TROFTA
228,kolyvan,RU,69.42,broken clouds,55.3053,82.7391,
230,aitape,PG,84.0,scattered clouds,-3.1374,142.3475,
232,talnakh,RU,61.81,overcast clouds,69.4865,88.3972,Talnakh Hotel
233,conceicao do araguaia,BR,77.13,clear sky,-8.2578,-49.2647,Tarumã Tropical Hotel
234,dharmadam,IN,80.58,overcast clouds,11.7833,75.4333,Samudra Homes
238,torbay,CA,67.75,overcast clouds,47.6666,-52.7314,Gallows Cove
239,barra do garcas,BR,64.98,clear sky,-15.89,-52.2567,Hotel Pousada Tropical
240,biak,ID,83.14,broken clouds,-0.9131,122.8766,Penginapan Kim
241,lincoln,US,87.3,clear sky,40.8,-96.667,Courtyard by Marriott Lincoln Downtown/Haymarket
242,nacozari,MX,82.11,broken clouds,25.3366,-108.2574,
243,kavaratti,IN,82.26,overcast clouds,10.5669,72.642,Hotels in Lakshadweep Islands
245,faya,SA,66.31,broken clouds,18.3851,42.4509,املاك خالد الشعشوع
247,renala khurd,PK,88.99,scattered clouds,30.8833,73.6,ch usman munir home
249,grand gaube,MU,72.0,overcast clouds,-20.0064,57.6608,Veranda Paul et Virginie Hotel & Spa
251,kundiawa,PG,72.64,broken clouds,-6.0167,144.9667,Dots Guest House
252,sibolga,ID,85.26,overcast clouds,1.7427,98.7792,Hotel Syariah CN Darussalam
253,lauchhammer,DE,65.79,clear sky,51.5,13.8,MR-Hotel & lukAs Restaurant-Bar
254,saint anthony,US,89.2,broken clouds,45.0205,-93.218,"Holiday Inn Express Roseville-St. Paul, an IHG Hotel"
255,piacabucu,BR,72.01,clear sky,-10.4056,-36.4344,Piaçabuçu News
259,palmer,US,66.81,clear sky,42.1584,-72.3287,Wedgewood Motel
262,vrangel,RU,76.78,few clouds,42.7297,133.0839,"Отель ""БАЛИ"""
263,culaman,PH,87.3,overcast clouds,5.9603,125.6586,Jasmin Ex House
264,santa cruz,BO,60.26,overcast clouds,-17.8,-63.1667,Aviador Hotel Boutique
265,college,US,64.72,broken clouds,64.8569,-147.8028,Pike's Waterfront Lodge
266,huarmey,PE,64.78,broken clouds,-10.0681,-78.1522,Hotel Miramar
267,kijang,KR,91.13,broken clouds,35.2442,129.2139,Samyang Beach Villa
268,nampula,MZ,60.75,clear sky,-15.1165,39.2666,BUTIK Hotel
269,hirara,JP,88.07,broken clouds,24.8,125.2833,Hotel Atoll Emerald Miyakojima
270,hun,LY,73.96,clear sky,29.1268,15.9477,Alrwasi Hotel
271,alamosa,US,69.31,clear sky,37.4695,-105.87,Best Western Alamosa Inn
272,alta floresta,BR,71.37,clear sky,-9.8756,-56.0861,Floresta Amazonica Hotel
274,kavieng,PG,84.52,scattered clouds,-2.5744,150.7967,Nusa Island Retreat
276,meulaboh,ID,84.42,overcast clouds,4.1363,96.1285,Kost Pria
278,den helder,NL,60.98,few clouds,52.9599,4.7593,Hotel Den Helder
279,turukhansk,RU,67.46,overcast clouds,65.8167,87.9833,"ООО ""Туруханская пушнина"""
281,amapa,BR,70.41,broken clouds,1.0,-52.0,
282,jesus carranza,MX,74.61,overcast clouds,17.4333,-95.0333,Departamento Doris
284,karratha,AU,76.19,scattered clouds,-20.7377,116.8463,ibis Styles Karratha
285,la ronge,CA,66.42,broken clouds,55.1001,-105.2842,Northland Motor Hotel
286,pinawa,CA,65.48,clear sky,50.1489,-95.8811,Pinawa Motel
287,goundam,ML,82.56,broken clouds,16.4145,-3.6708,
289,zhezkazgan,KZ,77.23,overcast clouds,47.8043,67.7144,Hotel Zumrat
290,batagay-alyta,RU,60.98,overcast clouds,67.8006,130.4114,
291,erzin,TR,79.32,clear sky,36.9559,36.2,Artemis Otel
293,stolin,BY,67.51,few clouds,51.8912,26.846,Stolinskiy Khlebozavod
294,boca do acre,BR,74.79,broken clouds,-8.7522,-67.3978,Hotel Sao Pedro
296,lithakia,GR,78.58,clear sky,37.7167,20.8333,Zante Plaza Hotel & Apartments
297,port lincoln,AU,60.4,clear sky,-34.7333,135.8667,Port Lincoln Hotel
298,sao joao da barra,BR,66.63,overcast clouds,-21.6403,-41.0511,Pousada Porto De Canoas
299,dong hoi,VN,90.32,overcast clouds,17.4833,106.6,Nam Long Hotel
300,tarakan,ID,83.7,few clouds,3.3,117.6333,RedDoorz Syariah near Taman Berlabuh Tarakan
302,asekeyevo,RU,64.54,scattered clouds,53.5742,52.7972,
303,jefferson city,US,84.13,clear sky,38.5767,-92.1735,DoubleTree by Hilton Hotel Jefferson City
305,malakal,SS,70.56,overcast clouds,9.5334,31.6605,Nile Palace Hotel
306,touros,BR,74.3,few clouds,-5.1989,-35.4608,INN NEW HORIZON
307,sakakah,SA,80.17,clear sky,29.9697,40.2064,Fakhamat Al Orjoana Apartment
309,gayeri,BF,73.11,broken clouds,12.6497,0.4931,
310,chara,RU,74.46,scattered clouds,56.9064,118.2631,
312,skelleftea,SE,66.0,clear sky,64.7507,20.9528,Quality Hotel Skellefteå Stadshotell
313,khamgaon,IN,78.39,overcast clouds,20.6833,76.5667,Gurukrupa Inn Hotel
314,borogontsy,RU,72.16,clear sky,62.6683,131.1683,
315,jos,NG,63.9,overcast clouds,9.9167,8.9,Silk Suites
317,gushikawa,JP,87.39,scattered clouds,26.3544,127.8686,Kirari Guest House
318,baruun-urt,MN,83.34,scattered clouds,46.6806,113.2792,Ахмадын амралт сувилал
320,roma,US,61.84,clear sky,43.2128,-75.4557,Wingate By Wyndham Rome
322,nouadhibou,MR,67.98,clear sky,20.931,-17.0347,El Medina
323,chernyshevskiy,RU,79.0,few clouds,63.0128,112.4714,Chernyseyskiy
324,bireun,ID,87.1,overcast clouds,5.203,96.7009,Rumah Bp.AR. ISMAIL
325,sao filipe,CV,74.43,overcast clouds,14.8961,-24.4956,Hotel Xaguate
326,yangambi,CD,72.68,overcast clouds,0.8102,24.4336,
331,hauge,NO,60.69,overcast clouds,58.3436,6.2812,Sogndalstrand Kulturhotell
333,bathsheba,BB,81.21,scattered clouds,13.2167,-59.5167,Atlantis Hotel
334,kudahuvadhoo,MV,81.9,broken clouds,2.6708,72.8944,Niyama Private Islands Maldives
335,picton,AU,64.47,clear sky,-34.1833,150.6,Picton Valley Motel
338,waddan,LY,73.74,clear sky,29.1614,16.139,محل الشريف محمد العايب
339,mansehra,PK,76.05,overcast clouds,34.3333,73.2,Aashiana Hotel Manshera
340,portland,US,88.39,few clouds,45.5234,-122.6762,Embassy Suites by Hilton Portland Downtown
341,chardara,KZ,85.28,clear sky,41.2547,67.9692,Жанаргул
342,zhongshu,CN,75.79,broken clouds,24.5167,103.7667,Xintianlong Hotel
343,nara,JP,92.52,clear sky,34.6851,135.8049,Guesthouse Nara Komachi
344,bonthe,SL,76.86,overcast clouds,7.5264,-12.505,Bonthe Holiday Village
345,san lawrenz,MT,80.85,clear sky,36.0553,14.204,San Andrea Hotel
347,marshall,US,78.1,clear sky,34.3834,-86.3333,Riverview Campground
349,namibe,AO,63.54,clear sky,-15.1961,12.1522,Hotel Chik Chik Namibe
351,kutum,SD,75.2,overcast clouds,14.2,24.6667,Dibbo areaمنطقة دبو
353,guasdualito,VE,71.8,overcast clouds,7.2424,-70.7324,Hotel Cuibas
355,kidal,ML,86.36,scattered clouds,18.4411,1.4078,
356,mecca,SA,87.76,overcast clouds,21.4267,39.8261,"Makkah Clock Royal Tower, A Fairmont Hotel"
359,sitka,US,64.29,few clouds,57.0531,-135.33,Westmark Sitka
360,linfen,CN,90.81,clear sky,36.0889,111.5189,Suoxing Hotel
363,ugoofaaru,MV,82.65,overcast clouds,5.6667,73.0,Ungoofaaru Inn
364,oktyabrskiy,RU,65.44,few clouds,54.4815,53.471,Уязы-Тау гостиница
365,starokorsunskaya,RU,70.9,clear sky,45.0573,39.3161,motel and cafe near the road
366,yamada,JP,80.4,broken clouds,39.4667,141.95,Iroha-ya Inn
367,calafell,ES,74.68,clear sky,41.2,1.5683,Hotel Kursaal Calafell Playa
368,umm lajj,SA,85.96,scattered clouds,25.0213,37.2685,Moon light Furnished Units
370,naze,JP,83.32,few clouds,28.3667,129.4833,奄美ポートタワーホテル
373,manosque,FR,69.76,clear sky,43.8288,5.7869,Hôtel Restaurant Campanile Manosque
374,rochester,US,64.08,clear sky,43.1548,-77.6156,Hyatt Regency Rochester
375,preobrazheniye,RU,81.18,clear sky,42.9019,133.9064,Campsite Orlan
376,tommot,RU,71.85,clear sky,58.9564,126.2925,Gostinitsa Tommot
377,poum,NC,73.47,clear sky,-20.2333,164.0167,Gîte kajeon
378,gizeh,EG,79.54,clear sky,30.0081,31.2109,Four Seasons Hotel Cairo at The First Residence
380,singaraja,ID,85.53,few clouds,-8.112,115.0882,Puri Bagus Lovina Resort
382,guymon,US,83.32,clear sky,36.6828,-101.4816,Super 8 Guymon
383,san policarpo,PH,91.27,overcast clouds,12.1791,125.5072,JM Lodge
384,fort nelson,CA,74.79,few clouds,58.8053,-122.7002,The Fort Nelson Hotel
388,hami,CN,100.29,broken clouds,42.8,93.45,Laoyutang Resort
390,sambava,MG,66.69,clear sky,-14.2667,50.1667,Melrose
391,save,BJ,70.41,overcast clouds,8.0425,2.486,Restaurant Plazza Hotel
393,hasaki,JP,91.29,few clouds,35.7333,140.8333,Hotel Sunrise Choshi
394,tual,ID,81.36,overcast clouds,-5.6667,132.75,Grand Vilia Hotel
395,chama,CH,64.62,few clouds,47.1821,8.4636,City Garden Hotel
397,guacimo,CR,83.01,overcast clouds,10.2104,-83.6807,Hotel Los Ríos
398,gat,IL,77.92,clear sky,31.61,34.7642,OlusHome
399,kununurra,AU,94.98,clear sky,-15.7667,128.7333,Hotel Kununurra
400,norsup,VU,80.08,broken clouds,-16.0667,167.3833,Nabelchel Bungalows
401,garowe,SO,75.67,overcast clouds,8.4054,48.4845,Curubo Hotel
402,coahuayana,MX,77.94,broken clouds,18.7333,-103.6833,El rranchito michuacan de ocampos
404,puertollano,ES,77.16,clear sky,38.6871,-4.1073,Hotel Puertollano
405,cepu,ID,88.93,scattered clouds,-7.1475,111.5906,OYO 673 Hotel Cepu Indah 1
406,salalah,OM,76.53,overcast clouds,17.0151,54.0924,HAMDAN PLAZA HOTEL SALALAH
407,taybad,IR,84.13,clear sky,34.74,60.7756,لی پوش jean center
408,bay roberts,CA,68.5,overcast clouds,47.5999,-53.2648,Stonewall Inn
410,batticaloa,LK,87.91,overcast clouds,7.7102,81.6924,Grand Star Guest House
411,bolshaya glushitsa,RU,77.68,overcast clouds,50.2406,43.5908,
412,bilma,NE,89.58,broken clouds,18.6853,12.9164,Expeditions Ténére voyages
415,acarau,BR,76.98,scattered clouds,-2.8856,-40.12,castelo pizzaria
417,abbeville,FR,60.76,broken clouds,50.1,1.8333,Hôtel Mercure Abbeville Centre - Porte de la Baie de Somme
418,san cristobal,VE,73.58,overcast clouds,7.7669,-72.225,Posada Villaven C.A.
419,penzance,GB,60.01,broken clouds,50.1186,-5.5371,Artist Residence Penzance
420,merauke,ID,82.6,scattered clouds,-8.4667,140.3333,
421,airai,TL,77.99,clear sky,-8.9266,125.4092,Juvinal Martin
422,gisenyi,RW,62.64,broken clouds,-1.7028,29.2564,Palm garden Resort
424,ambanja,MG,64.33,clear sky,-13.6833,48.45,Hotel Salama and Fast Food
425,calamar,CO,82.35,clear sky,10.2511,-74.9146,Hostal Katyalex
427,maymyo,MM,72.77,overcast clouds,22.0333,96.4667,Tiger Hotel
428,nouakchott,MR,74.16,overcast clouds,18.0858,-15.9785,HOTEL IMAN فندق إيمان
430,qrendi,MT,81.1,clear sky,35.8347,14.4583,M'Anglu
431,surt,LY,78.89,clear sky,31.2089,16.5887,الهادي ابوشعاله سرت
432,bela,IN,85.3,overcast clouds,25.9333,81.9833,Raj Bhawan
433,srandakan,ID,82.6,broken clouds,-7.9386,110.2506,Puri Brata
435,sohbatpur,PK,95.47,broken clouds,28.5202,68.5434,Allu Hotel
437,bambous virieux,MU,71.85,scattered clouds,-20.3428,57.7575,Casa Tia Villa
438,takoradi,GH,76.3,overcast clouds,4.8845,-1.7554,Raybow International Hotel
439,salinopolis,BR,77.86,few clouds,-0.6136,-47.3561,Salinas Park Resort Maçarico AP101
440,aquiraz,BR,80.69,few clouds,-3.9014,-38.3911,Pousada Rua Camurupim
441,champerico,GT,82.35,overcast clouds,14.3,-91.9167,"Hotel y restaurante ""El Diamante"""
444,saint-alexandre,FR,70.3,clear sky,44.2278,4.6214,Hôtel Le Valaurie
445,komsomolskiy,UZ,84.92,scattered clouds,40.4272,71.7189,Ikathouse
447,la palma,US,89.35,few clouds,33.8464,-118.0467,La Quinta Inn & Suites by Wyndham Buena Park
449,warri,NG,72.91,overcast clouds,5.5167,5.75,BON Hotel Delta
451,zeya,RU,69.55,overcast clouds,53.75,127.2667,Kapital Inn
455,guerrero negro,MX,70.0,clear sky,27.9769,-114.0611,"Casa Laguna, Bed & Breakfast"
456,manadhoo,MV,82.67,overcast clouds,5.7667,73.3833,Vevu Guesthouse
458,kapit,MY,94.46,broken clouds,2.0167,112.9333,Hotel Meligai Kapit
459,felnac,RO,73.29,clear sky,46.1167,21.15,Casa Nichifor
461,hue,VN,98.71,few clouds,16.4667,107.6,Saigon Morin Hotel
462,bardiyah,LY,77.63,clear sky,31.7561,25.0865,بورتو بردية
470,sheridan,US,82.58,clear sky,44.8333,-106.9173,Comfort Inn & Suites
471,cobija,BO,66.4,clear sky,-11.0267,-68.7692,Hotel Obelisco
472,araripina,BR,73.36,overcast clouds,-7.5761,-40.4983,Hotel Eco Recanto da Serra
473,bonfim,BR,75.0,overcast clouds,3.0833,-59.95,
474,manturovo,RU,62.8,broken clouds,58.3353,44.7619,ProstoХостел
475,nhulunbuy,AU,86.61,few clouds,-12.2333,136.7667,East Arnhem Real Estate
476,masalli,KR,89.28,broken clouds,34.7959,126.6553,영암펜션
477,gokul,IN,85.01,overcast clouds,27.45,77.7167,OYO 12065 Hotel Raj Palace
478,mount pleasant,US,80.01,mist,32.7941,-79.8626,Best Western Patriots Point
479,atasu,KZ,72.59,overcast clouds,48.6814,71.6433,Dostyk
481,ballina,AU,75.38,scattered clouds,-28.8667,153.5667,Ramada Hotel & Suites by Wyndham Ballina Byron
482,liberal,US,84.34,clear sky,37.0431,-100.921,Hampton Inn & Suites Liberal
486,toropets,RU,63.88,scattered clouds,56.4978,31.6353,Toropa
487,puerto escondido,MX,79.27,overcast clouds,15.85,-97.0667,Aldea del Bazar Hotel and Spa
488,schenectady,US,62.62,few clouds,42.8334,-74.0829,Frosty Acres Campground
489,aykhal,RU,80.51,clear sky,66.0,111.5,
490,shahr-e babak,IR,78.33,broken clouds,30.1165,55.1186,Duna Ecolodge
491,potiskum,NG,70.23,overcast clouds,11.7091,11.0694,Tamir Hotel Ltd
492,chicama,PE,66.33,overcast clouds,-7.8447,-79.1469,Balihai Bungalows
493,lashio,MM,72.21,overcast clouds,22.9333,97.75,Hotel CF Lashio - Burmese Only
494,singkang,MY,84.09,broken clouds,2.1006,102.7994,Kampung Seri Makmor Pagoh
495,denpasar,ID,82.06,broken clouds,-8.65,115.2167,ASTON Denpasar Hotel & Convention Center
496,mayumba,GA,69.78,clear sky,-3.432,10.6554,LIKWALE LODGE
497,westport,US,72.99,clear sky,41.1415,-73.3579,The Westport Inn
498,pangai,TO,75.31,scattered clouds,-19.8,-174.35,Ha'apai Beach Resort
501,celestun,MX,79.74,broken clouds,20.8667,-90.4,Posada Lilia
503,zhigalovo,RU,86.94,clear sky,54.8097,105.1578,"Hotel ""Lenatur"""
504,derzhavinsk,KZ,65.03,clear sky,51.1,66.3167,Ooo.khim Baza
505,auki,SB,84.54,scattered clouds,-8.7676,160.7034,Auki Motel
509,angoram,PG,87.39,scattered clouds,-4.0625,144.0661,
510,ahuimanu,US,83.91,overcast clouds,21.4447,-157.8378,Paradise Bay Resort
512,abong mbang,CM,65.89,overcast clouds,3.9833,13.1833,Auberge Angle Sur
513,shenjiamen,CN,81.63,broken clouds,29.9576,122.298,Jinjiang Inn Zhoushan Putuo Shenjiamen
514,south lake tahoe,US,81.25,clear sky,38.9332,-119.9844,Tahoe Lakeshore Lodge & Spa
515,altus,US,85.51,clear sky,34.6381,-99.334,"Holiday Inn Express & Suites Altus, an IHG Hotel"
516,jinchang,CN,90.23,clear sky,38.4953,102.1739,Mingshihui Jinchang International Hotel
517,bo phloi,TH,85.26,overcast clouds,14.3236,99.5161,แอท เมืองพลอย รีสอร์ท At MuangPloy Resort
518,san ramon,US,79.03,clear sky,37.7799,-121.978,San Ramon Marriott
519,sergeyevka,KZ,60.8,clear sky,53.88,67.4158,Amina
520,cockburn town,TC,81.72,overcast clouds,21.4612,-71.1419,Osprey Beach Hotel
521,buchanan,LR,76.15,overcast clouds,5.8808,-10.0467,Kamaneahn Hotel Inc
522,xining,CN,71.1,clear sky,36.6167,101.7667,Super Leisure Hotel
523,roebourne,AU,77.47,clear sky,-20.7833,117.1333,Latitude20 Roebourne Village
524,dzilam gonzalez,MX,76.08,scattered clouds,21.2833,-88.9333,posadas
526,tupelo,US,82.69,clear sky,34.2576,-88.7034,"Hilton Garden Inn Tupelo, MS"
527,shimoda,JP,87.1,scattered clouds,34.6667,138.95,Shimoda Tokyu Hotel
528,nelson bay,AU,67.28,clear sky,-32.7167,152.15,Mantra Nelson Bay
529,aklavik,CA,61.63,overcast clouds,68.2191,-135.0107,Aklavik Inn
530,bima,ID,91.42,few clouds,-8.4667,118.7167,Lambitu Hotel
534,kurchum,KZ,69.8,broken clouds,48.5722,83.6542,"Gostinitsa ""Kneda"""
535,shirvan,AZ,77.49,broken clouds,39.9509,48.8994,Nəriman Nərimanov küçəsi Şirvan Azərbaycan
536,novikovo,RU,68.18,clear sky,51.1537,37.8879,
538,jieshi,CN,89.94,overcast clouds,22.8134,115.8257,Yuehai Hotel
539,nagato,JP,85.95,clear sky,34.3833,131.2,いそう庵
540,sabzevar,IR,76.28,clear sky,36.2126,57.6819,پزشکی قانونی سبزوار
541,argudan,RU,65.28,clear sky,43.4214,43.9158,
543,monclova,MX,84.06,broken clouds,26.9,-101.4167,Hotel Royal Inn
544,praia da vitoria,PT,70.75,broken clouds,38.7333,-27.0667,Hotel Branco I
545,mama,RU,82.53,few clouds,58.3106,112.8986,
547,tonj,SS,67.59,overcast clouds,7.2737,28.6822,
548,anzio,IT,77.36,clear sky,41.4853,12.6179,Beauty Hotel & SPA
550,irricana,CA,77.18,scattered clouds,51.3237,-113.6048,Irricana Campground
551,sobolevo,RU,65.14,few clouds,54.4299,31.8996,
552,san patricio,US,84.88,clear sky,28.017,-97.5169,"Motel 6 Sinton, TX"
553,kintinku,TZ,60.37,clear sky,-5.8833,35.2333,
554,sinnamary,GF,76.87,overcast clouds,5.3833,-52.95,ALETHEIA Appartement Sinnamary
555,tura,IN,77.18,overcast clouds,25.5198,90.2201,Hotel RIKMAN Continental
556,porto velho,BR,75.25,clear sky,-8.7619,-63.9039,Hotel Central
557,najran,SA,83.05,scattered clouds,17.4924,44.1277,محمد هادي ال فطيح
558,sibu,MY,89.91,few clouds,2.3,111.8167,RH HOTEL (4 Star)
559,schwedt,DE,64.58,clear sky,53.0596,14.2815,Andersen Hotel Schwedt
560,padang,ID,75.25,scattered clouds,-0.9492,100.3543,Mercure Padang
561,elko,US,78.82,overcast clouds,41.0002,-115.5012,
564,ganta,LR,66.63,overcast clouds,7.3022,-8.5308,
565,clinton,US,77.32,scattered clouds,42.587,-82.9199,Hampton Inn Detroit/Roseville
566,trinidad,BO,62.51,overcast clouds,-14.8333,-64.9,Hotel Piesta
567,laguna,US,94.84,scattered clouds,38.421,-121.4238,"Holiday Inn Express & Suites Elk Grove Central - Hwy 99, an IHG Hotel"
569,scranton,US,62.83,clear sky,41.409,-75.6624,Radisson Lackawanna Station Hotel Scranton
570,tagusao,PH,88.57,overcast clouds,9.1924,117.8141,Toledo
571,kathmandu,NP,77.22,broken clouds,27.7167,85.3167,Hotel Shanker Kathmandu
573,virginia beach,US,76.01,few clouds,36.8529,-75.978,Hilton Virginia Beach Oceanfront
574,niles,US,82.35,broken clouds,42.0189,-87.8028,"Holiday Inn & Suites Chicago North Shore (Skokie), an IHG Hotel"
576,angoche,MZ,68.23,clear sky,-16.2325,39.9086,Guest House HESADA
577,thinadhoo,MV,81.34,overcast clouds,0.5333,72.9333,
578,kargil,IN,65.5,broken clouds,34.5667,76.1,Caravan Sarai
579,corvallis,US,90.07,clear sky,44.5646,-123.262,Hilton Garden Inn Corvallis
580,mokhsogollokh,RU,70.66,clear sky,61.4681,128.9203,
581,wazirganj,IN,87.03,overcast clouds,28.2167,79.05,Akashdeep Guest House
